[
  {
    "id": "grb-shelter",
    "name": "George R. Brown Convention Center",
    "type": "shelter",
    "lat": 29.7525,
    "lng": -95.3573,
    "capacity": 5000,
    "availableCapacity": 1840,
    "has": ["beds", "water", "meals", "medical", "blankets", "wheelchair_access", "pet_friendly"],
    "address": "1001 Avenida de las Americas, Houston, TX 77010",
    "phone": "713-853-8000"
  },
  {
    "id": "nrg-center",
    "name": "NRG Center Mega Shelter",
    "type": "shelter",
    "lat": 29.6847,
    "lng": -95.4107,
    "capacity": 4000,
    "availableCapacity": 950,
    "has": ["beds", "water", "meals", "medical", "blankets", "oxygen"],
    "address": "1 NRG Park, Houston, TX 77054",
    "phone": "832-667-1400"
  },
  {
    "id": "lakewood-shelter",
    "name": "Lakewood Community Shelter",
    "type": "shelter",
    "lat": 29.6815,
    "lng": -95.4344,
    "capacity": 1500,
    "availableCapacity": 420,
    "has": ["beds", "water", "meals", "blankets", "baby_formula"],
    "address": "3700 Southwest Fwy, Houston, TX 77027",
    "phone": "713-635-4154"
  },
  {
    "id": "mo-campbell",
    "name": "M.O. Campbell Educational Center",
    "type": "shelter",
    "lat": 29.9105,
    "lng": -95.4012,
    "capacity": 1200,
    "availableCapacity": 610,
    "has": ["beds", "water", "meals", "blankets"],
    "address": "1865 Aldine Bender Rd, Houston, TX 77032",
    "phone": "281-985-6100"
  },
  {
    "id": "alief-hastings",
    "name": "Hastings High School Shelter (Alief)",
    "type": "shelter",
    "lat": 29.6889,
    "lng": -95.5915,
    "capacity": 900,
    "availableCapacity": 540,
    "has": ["beds", "water", "meals", "blankets", "translation", "pet_friendly"],
    "address": "4410 Cook Rd, Houston, TX 77072",
    "phone": "281-498-8110"
  },
  {
    "id": "magnolia-msc",
    "name": "Magnolia Multi-Service Center",
    "type": "shelter",
    "lat": 29.7077,
    "lng": -95.2842,
    "capacity": 600,
    "availableCapacity": 230,
    "has": ["beds", "water", "meals", "translation", "baby_formula"],
    "address": "7037 Capitol St, Houston, TX 77011",
    "phone": "713-928-2161"
  },
  {
    "id": "west-gray-msc",
    "name": "West Gray Multi-Service Center",
    "type": "shelter",
    "lat": 29.7549,
    "lng": -95.3899,
    "capacity": 500,
    "availableCapacity": 175,
    "has": ["beds", "water", "meals", "wheelchair_access"],
    "address": "1475 W Gray St, Houston, TX 77019",
    "phone": "832-395-7100"
  },
  {
    "id": "houston-food-bank",
    "name": "Houston Food Bank Distribution",
    "type": "distribution",
    "lat": 29.722,
    "lng": -95.279,
    "capacity": 8000,
    "availableCapacity": 8000,
    "has": ["water", "meals", "food", "baby_formula", "diapers"],
    "address": "535 Portwall St, Houston, TX 77029",
    "phone": "713-223-3700"
  },
  {
    "id": "redcross-hq",
    "name": "American Red Cross Houston Supply Point",
    "type": "distribution",
    "lat": 29.7363,
    "lng": -95.4034,
    "capacity": 6000,
    "availableCapacity": 5200,
    "has": ["water", "blankets", "meals", "first_aid", "diapers"],
    "address": "2700 Southwest Fwy, Houston, TX 77098",
    "phone": "713-526-8300"
  },
  {
    "id": "acres-homes-msc",
    "name": "Acres Homes Multi-Service Center Supplies",
    "type": "distribution",
    "lat": 29.8458,
    "lng": -95.4356,
    "capacity": 3000,
    "availableCapacity": 2100,
    "has": ["water", "food", "meals", "diapers", "baby_formula"],
    "address": "6719 W Montgomery Rd, Houston, TX 77091",
    "phone": "832-393-1700"
  },
  {
    "id": "sunnyside-msc",
    "name": "Sunnyside Multi-Service Center Supplies",
    "type": "distribution",
    "lat": 29.6624,
    "lng": -95.3477,
    "capacity": 2500,
    "availableCapacity": 1300,
    "has": ["water", "food", "first_aid", "blankets"],
    "address": "4605 Wilmington St, Houston, TX 77051",
    "phone": "832-393-4200"
  },
  {
    "id": "kashmere-msc",
    "name": "Kashmere Multi-Service Center Supplies",
    "type": "distribution",
    "lat": 29.8027,
    "lng": -95.3169,
    "capacity": 2000,
    "availableCapacity": 1600,
    "has": ["water", "food", "diapers", "first_aid"],
    "address": "4802 Lockwood Dr, Houston, TX 77026",
    "phone": "832-393-4150"
  },
  {
    "id": "ben-taub",
    "name": "Ben Taub Hospital Emergency Care",
    "type": "medical",
    "lat": 29.7106,
    "lng": -95.395,
    "capacity": 350,
    "availableCapacity": 40,
    "has": ["medical", "oxygen", "first_aid", "wheelchair_access", "dialysis"],
    "address": "1504 Ben Taub Loop, Houston, TX 77030",
    "phone": "713-873-2000"
  },
  {
    "id": "lbj-hospital",
    "name": "Lyndon B. Johnson Hospital",
    "type": "medical",
    "lat": 29.8606,
    "lng": -95.3289,
    "capacity": 300,
    "availableCapacity": 65,
    "has": ["medical", "oxygen", "first_aid", "wheelchair_access"],
    "address": "5656 Kelley St, Houston, TX 77026",
    "phone": "713-566-5000"
  },
  {
    "id": "memorial-hermann-tmc",
    "name": "Memorial Hermann-Texas Medical Center",
    "type": "medical",
    "lat": 29.7108,
    "lng": -95.3995,
    "capacity": 400,
    "availableCapacity": 30,
    "has": ["medical", "oxygen", "dialysis", "first_aid", "wheelchair_access"],
    "address": "6411 Fannin St, Houston, TX 77030",
    "phone": "713-704-4000"
  },
  {
    "id": "fonde-rec",
    "name": "Fonde Recreation Center Aid Station",
    "type": "medical",
    "lat": 29.7626,
    "lng": -95.3656,
    "capacity": 200,
    "availableCapacity": 120,
    "has": ["first_aid", "water", "oxygen", "medical"],
    "address": "110 Sabine St, Houston, TX 77007",
    "phone": "832-395-7100"
  },
  {
    "id": "delmar-evac",
    "name": "Delmar Stadium Evacuation Point",
    "type": "evacuation",
    "lat": 29.8235,
    "lng": -95.4641,
    "capacity": 2000,
    "availableCapacity": 2000,
    "has": ["water", "transport", "wheelchair_access", "pet_friendly"],
    "address": "2020 Mangum Rd, Houston, TX 77092",
    "phone": "713-251-1100"
  },
  {
    "id": "bayland-evac",
    "name": "Bayland Park Evacuation & Bus Staging",
    "type": "evacuation",
    "lat": 29.7045,
    "lng": -95.5269,
    "capacity": 1800,
    "availableCapacity": 1500,
    "has": ["water", "transport", "blankets", "translation"],
    "address": "6400 Bissonnet St, Houston, TX 77074",
    "phone": "713-274-3900"
  }
]
